[
    { "name": "B퀋u c敲벾 Trung t칙m H N敲뗠", "lat": 21.0285, "lng": 105.8542, "status": "游댮 캟칪ng", "hours": "7:30 - 19:00", "phone": "1900 545481" },
    { "name": "B퀋u c敲벾 C故븟 Gi故볓", "lat": 21.0341, "lng": 105.7924, "status": "游릭 V故슱g", "hours": "8:00 - 17:30", "phone": "1900 545482" },
    { "name": "B퀋u c敲벾 Thanh Xu칙n", "lat": 20.9951, "lng": 105.8153, "status": "游리 Trung b칣nh", "hours": "8:00 - 18:00", "phone": "1900 545483" },
    { "name": "B퀋u c敲벾 Hai B Tr퀋ng", "lat": 21.0063, "lng": 105.8624, "status": "游댮 캟칪ng", "hours": "7:30 - 19:00", "phone": "1900 545484" },
    { "name": "B퀋u c敲벾 캟敲녍g 캟a", "lat": 21.0150, "lng": 105.8200, "status": "游리 Trung b칣nh", "hours": "8:00 - 18:00", "phone": "1900 545485" },
    { "name": "B퀋u c敲벾 Trung t칙m S말 G쑕", "lat": 10.7798, "lng": 106.7020, "status": "游댮 캟칪ng", "hours": "7:30 - 19:00", "phone": "1900 545486" },
    { "name": "B퀋u c敲벾 Qu故셡 3", "lat": 10.7843, "lng": 106.6845, "status": "游리 Trung b칣nh", "hours": "8:00 - 18:00", "phone": "1900 545487" },
    { "name": "B퀋u c敲벾 T칙n B칣nh", "lat": 10.8030, "lng": 106.6586, "status": "游릭 V故슱g", "hours": "8:00 - 17:30", "phone": "1900 545488" },
    { "name": "B퀋u c敲벾 Qu故셡 7", "lat": 10.7297, "lng": 106.7027, "status": "游릭 V故슱g", "hours": "8:00 - 17:30", "phone": "1900 545489" }
]